{
  "lands": [
    {
      "name": "Hello",
      "location": "Goodyear, AZ, USA",
      "latitude": 33.4353394,
      "longitude": -112.3576567,
      "id": 1
    },
    {
      "name": "sha-shak",
      "location": "Uttara, Dhaka, Bangladesh",
      "latitude": 23.8758547,
      "longitude": 90.3795438,
      "id": 2
    },
    {
      "name": "Rupok",
      "location": "Banasree Main Road, Dhaka, Bangladesh",
      "latitude": 23.7634895,
      "longitude": 90.4324448,
      "id": 3
    },
    {
      "name": "Imran hossain",
      "location": "Malotinagar, Bogura, Bangladesh",
      "latitude": 24.8399063,
      "longitude": 89.38372849999999,
      "id": 4
    },

    {
      "name": "Munshi",
      "location": "Badiatola Bazar, Badiatola, Bangladesh",
      "latitude": 23.1981111,
      "longitude": 89.1476252,
      "id": 6
    }
  ],
  "projects": [
    {
      "projectName": "Test-1",
      "projectDescription": "First test",
      "projectStatus": "started",
      "lands": ["Munshi"],
      "id": 1
    },
    {
      "projectName": "Agriculture",
      "projectDescription": "Alu, tomato",
      "projectStatus": "started",
      "lands": ["Rupok", "sha-shak"],
      "id": 2
    },
    {
      "projectName": "horticulture",
      "projectDescription": "horticulture is the science and art of the development, sustainable production, marketing and use of high-value, intensively cultivated food and ornamental plants. ",
      "projectStatus": "in progress",
      "lands": ["Munshi", "Rupok"],
      "id": 3
    },
    {
      "projectName": "test",
      "projectDescription": "for testing p[urpose",
      "projectStatus": "in progress",
      "lands": ["Hello"],
      "id": 4
    }
  ]
}
